City_ID,City,Lat,Lng,Max Temp,Humidity,Cloudiness,Wind Speed,Country,Date
0,altoona,40.5187,-78.3947,299.71,94,100,1.33,US,1721243403
1,lengshuitan,26.4111,111.5956,299.9,75,100,2.42,CN,1721243404
2,kurchum,48.5722,83.6542,292.04,71,6,1.4,KZ,1721243405
3,bredasdorp,-34.5322,20.0403,284.65,75,100,1.51,ZA,1721243226
4,yaren,-0.5472,166.916,301.0,73,100,1.1,NR,1721243407
5,selfoss,63.9331,-20.9971,286.51,96,100,1.46,IS,1721243409
6,talnakh,69.4865,88.3972,282.99,60,8,1.4,RU,1721243410
7,palikir - national government center,6.9248,158.1611,300.22,78,100,4.64,FM,1721243411
8,margaret river,-33.95,115.0667,285.38,78,97,5.98,AU,1721243412
9,krasnovishersk,60.4078,57.082,291.74,69,100,0.32,RU,1721243413
10,colby,39.3958,-101.0524,303.18,48,40,5.36,US,1721243414
11,albany,42.6001,-73.9662,303.01,70,97,0.89,US,1721243415
12,heyuan,23.7333,114.6833,298.95,90,0,0.66,CN,1721243316
13,saipan,15.1355,145.701,302.54,74,20,4.63,MP,1721243204
14,thompson,55.7435,-97.8558,300.39,26,18,3.07,CA,1721243178
15,georgetown,5.4112,100.3354,302.11,74,20,1.54,MY,1721243420
16,grytviken,-54.2811,-36.5092,273.23,98,100,0.4,GS,1721243421
17,port-aux-francais,-49.35,70.2167,278.24,97,100,10.93,TF,1721243422
18,hawaiian paradise park,19.5933,-154.9731,298.88,82,100,3.09,US,1721243423
19,iqaluit,63.7506,-68.5145,276.87,93,100,10.73,CA,1721243424
20,yellowknife,62.456,-114.3525,301.71,58,35,1.34,CA,1721243426
21,waitangi,-43.9535,-176.5597,283.05,92,100,0.89,NZ,1721243428
22,tiksi,71.6872,128.8694,278.47,73,99,4.3,RU,1721243429
23,petoskey,45.3733,-84.9553,295.06,68,40,5.36,US,1721243430
24,college,64.8569,-147.8028,288.19,76,75,0.0,US,1721243431
25,papatowai,-46.5619,169.4708,281.74,90,100,3.19,NZ,1721243432
26,grand falls-windsor,48.9332,-55.6649,296.76,90,100,1.89,CA,1721243433
27,san jorge,-31.8962,-61.8598,293.62,41,0,4.58,AR,1721243434
28,cuyo,10.8525,121.0086,299.1,85,100,4.2,PH,1721243435
29,nuuk,64.1835,-51.7216,285.49,62,20,4.12,GL,1721243438
30,klyuchi,52.2667,79.1667,293.29,83,37,2.72,RU,1721243439
31,atafu village,-8.5421,-172.5159,301.76,74,12,9.67,TK,1721243440
32,east london,-33.0153,27.9116,290.81,77,44,4.02,ZA,1721243441
33,grand-popo,6.2804,1.8225,297.89,84,91,6.68,BJ,1721243442
34,conceicao do araguaia,-8.2578,-49.2647,309.05,17,0,2.74,BR,1721243443
35,blackmans bay,-43.0167,147.3167,280.22,82,100,1.79,AU,1721243444
36,wailua homesteads,22.0669,-159.378,300.39,69,75,5.14,US,1721243445
37,ribeira grande,38.5167,-28.7,297.37,73,40,3.58,PT,1721243323
38,laguna,38.421,-121.4238,303.5,44,0,2.06,US,1721243448
39,lazaro cardenas,17.9583,-102.2,304.67,63,7,4.71,MX,1721243449
40,bethel,41.3712,-73.414,305.86,67,20,3.09,US,1721243450
41,adamstown,-25.066,-130.1015,295.57,84,100,10.08,PN,1721243423
42,alofi,-19.0595,-169.9187,291.09,100,6,0.51,NU,1721243452
43,frederico westphalen,-27.3592,-53.3944,291.19,78,55,2.44,BR,1721243453
44,stanley,54.868,-1.6985,292.99,71,20,2.57,GB,1721243454
45,puerto natales,-51.7236,-72.4875,279.4,93,100,1.54,CL,1721243456
46,chunskiy,56.0815,99.6342,289.98,83,8,0.91,RU,1721243457
47,necochea,-38.5473,-58.7368,286.28,54,97,2.77,AR,1721243458
48,nyurba,63.2842,118.3319,287.17,98,18,2.24,RU,1721243459
49,al bardiyah,31.7561,25.0865,299.7,73,0,5.2,LY,1721243460
50,puerto ayora,-0.7393,-90.3518,300.13,91,72,1.79,EC,1721243461
51,badger,64.8,-147.5333,288.14,74,75,0.45,US,1721243184
52,ust-nera,64.5667,143.2,290.59,63,97,3.6,RU,1721243447
53,kousseri,12.0769,15.0306,305.55,50,100,3.59,CM,1721243464
54,tralee,52.2704,-9.7026,289.14,84,100,2.38,IE,1721243466
55,invercargill,-46.4,168.35,278.16,100,83,0.89,NZ,1721243467
56,polyarnyy,69.1989,33.4478,285.85,93,100,3.22,RU,1721243468
57,anadyr,64.75,177.4833,288.43,82,20,3.0,RU,1721243469
58,labrador city,52.9463,-66.9114,293.25,63,48,17.88,CA,1721243470
59,coquimbo,-29.9533,-71.3436,285.0,87,100,5.66,CL,1721243179
60,horovice,49.836,13.9027,295.47,71,51,1.41,CZ,1721243472
61,nova sintra,14.8667,-24.7167,297.74,74,88,3.26,CV,1721243473
62,sitka,57.0531,-135.33,287.09,94,100,5.66,US,1721243474
63,longyearbyen,78.2186,15.6401,283.06,62,0,8.23,SJ,1721243476
64,motueka,-41.1333,173.0167,283.76,91,94,1.45,NZ,1721243477
65,kapuskasing,49.4169,-82.4331,285.22,79,100,4.28,CA,1721243478
66,constantia,44.1833,28.65,302.53,68,0,2.36,RO,1721243231
67,muisne,0.6,-80.0333,297.68,83,97,4.82,EC,1721243480
68,hermanus,-34.4187,19.2345,286.37,77,100,3.84,ZA,1721243481
69,avarua,-21.2078,-159.775,296.18,68,20,2.57,CK,1721243455
70,xiaoshi,41.2971,124.1209,293.55,97,39,1.45,CN,1721243483
71,micheweni,-4.9667,39.8333,297.65,77,6,5.03,TZ,1721243484
72,gorzow wielkopolski,52.7368,15.2288,292.16,70,41,3.03,PL,1721243268
73,greymouth,-42.4667,171.2,280.77,88,100,2.56,NZ,1721243292
74,pisco,-13.7,-76.2167,290.18,82,100,3.09,PE,1721243489
75,sao joao da barra,-21.6403,-41.0511,300.2,79,5,6.67,BR,1721243490
76,santa marta,11.2408,-74.199,302.21,76,100,4.88,CO,1721243491
77,dawson creek,55.7666,-120.2362,302.95,23,0,2.57,CA,1721243492
78,sarai,53.7458,41.0213,296.62,74,5,2.64,RU,1721243494
79,belyy yar,53.6039,91.3903,293.09,94,40,5.0,RU,1721243408
80,karratha,-20.7377,116.8463,292.12,57,2,4.13,AU,1721243496
81,new norfolk,-42.7826,147.0587,280.87,80,100,1.9,AU,1721243497
82,gereida,11.2811,25.1414,304.69,42,96,2.82,SD,1721243498
83,ivdel',60.6911,60.4206,289.59,78,0,1.7,RU,1721243499
84,jianshui,23.6363,102.8264,293.27,92,100,1.47,CN,1721243500
85,lakhipur,26.0299,90.3041,300.81,88,87,0.68,IN,1721243501
86,nelson bay,-32.7167,152.15,284.87,89,100,0.89,AU,1721243502
87,tazovsky,67.4667,78.7,285.13,60,0,2.05,RU,1721243504
88,oriximina,-1.7656,-55.8661,307.09,36,2,3.56,BR,1721243505
89,yorkton,51.2167,-102.4677,296.06,53,0,3.09,CA,1721243506
90,port hedland,-20.3167,118.5667,288.18,51,2,2.57,AU,1721243508
91,lihue,21.9789,-159.3672,299.12,71,75,5.14,US,1721243510
92,isafjordur,66.0755,-23.124,287.17,72,75,6.17,IS,1721243511
93,nuku'alofa,-21.1333,-175.2,295.34,94,75,0.51,TO,1721243513
94,sandnessjoen,66.0217,12.6316,297.44,56,0,3.6,NO,1721243514
95,belaya kholunitsa,58.84,50.8528,287.72,99,100,0.87,RU,1721243515
96,yangiyer,40.275,68.8225,299.94,30,44,2.45,UZ,1721243516
97,carnarvon,-24.8667,113.6333,293.65,78,0,6.36,AU,1721243517
98,thinadhoo,0.5333,72.9333,301.82,74,41,2.66,MV,1721243518
99,nadvoitsy,63.8667,34.3167,291.26,72,100,0.81,RU,1721243519
100,porto novo,6.4965,2.6036,297.65,85,100,4.03,BJ,1721243521
101,enoch,37.7733,-113.0244,304.29,31,0,2.57,US,1721243522
102,winnemucca,40.973,-117.7357,307.18,11,0,5.66,US,1721243523
103,kodiak,57.79,-152.4072,283.88,87,20,2.06,US,1721243524
104,tayoltita,24.0833,-105.9333,306.16,50,79,2.44,MX,1721243525
105,el porvenir,13.7617,-87.3458,303.78,43,90,1.03,HN,1721243527
106,sucre,-19.0333,-65.2627,289.2,40,4,4.05,BO,1721243520
107,sayat,38.7839,63.8803,303.41,24,7,4.88,TM,1721243529
108,prado,-17.3411,-39.2208,298.06,64,0,3.17,BR,1721243530
109,namibe,-15.1961,12.1522,291.77,90,100,4.25,AO,1721243531
110,lucapa,-8.4192,20.7447,297.57,23,97,0.88,AO,1721243532
111,fuglafjordur,62.244,-6.814,285.41,85,99,3.34,FO,1721243534
112,afaahiti,-17.75,-149.2833,299.08,78,36,2.6,PF,1721243535
113,port lincoln,-34.7333,135.8667,284.01,75,78,1.56,AU,1721243536
114,poronaysk,49.2167,143.1167,285.19,91,100,4.08,RU,1721243537
115,olinda,-8.0089,-34.8553,301.0,65,40,6.69,BR,1721243538
116,mount pearl,47.5166,-52.7813,296.34,85,75,11.83,CA,1721243539
117,ilulissat,69.2167,-51.1,285.16,50,0,2.06,GL,1721243540
118,saudarkrokur,65.7461,-19.6394,290.02,62,59,3.53,IS,1721243542
119,westport,41.1415,-73.3579,306.01,66,0,3.09,US,1721243543
120,sumbawa besar,-8.5,117.4333,292.75,84,3,1.72,ID,1721243544
121,edinburgh of the seven seas,-37.0676,-12.3116,284.63,65,97,10.08,SH,1721243545
122,roma,43.2128,-75.4557,301.46,71,20,4.12,US,1721243517
123,tucurui,-3.7661,-49.6725,305.76,30,5,2.37,BR,1721243547
124,rio grande,-32.035,-52.0986,289.21,76,67,4.42,BR,1721243548
125,west island,-12.1568,96.8225,300.14,74,20,4.63,CC,1721243549
126,atherton,53.5237,-2.4935,293.97,68,100,0.89,GB,1721243550
127,kavaratti,10.5669,72.642,300.24,84,100,9.85,IN,1721243552
128,vorgashor,67.5833,63.95,289.19,84,100,1.69,RU,1721243553
129,shingu,33.7333,135.9833,297.07,89,97,2.6,JP,1721243554
130,cururupu,-1.8283,-44.8683,300.69,68,96,1.29,BR,1721243555
131,port alfred,-33.5906,26.891,287.14,87,100,4.79,ZA,1721243556
132,tura,25.5198,90.2201,298.71,92,100,1.19,IN,1721243557
133,wenzhou,27.9994,120.6668,300.66,82,26,0.59,CN,1721243558
134,walla walla,46.0646,-118.343,309.74,24,100,1.34,US,1721243559
135,chela,34.069,104.4619,285.64,92,0,1.46,CN,1721243560
136,zhaoyuan,37.3592,120.3964,296.06,97,99,0.38,CN,1721243562
137,manta,-0.95,-80.7333,300.03,74,75,4.63,EC,1721243497
138,manga,11.6636,-1.0731,299.73,82,25,3.68,BF,1721243564
139,canton,23.1167,113.25,301.12,66,33,4.05,CN,1721243565
140,uturoa,-16.7333,-151.4333,297.86,72,18,1.97,PF,1721243566
141,malvan,16.0667,73.4667,300.07,87,100,9.72,IN,1721243567
142,vadso,70.0744,29.7487,287.64,94,20,5.14,NO,1721243568
143,suncho corral,-27.9336,-63.4294,297.23,24,5,5.73,AR,1721243569
144,saynshand,44.8824,110.1163,295.64,41,11,0.81,MN,1721243570
145,taksimo,56.3444,114.8794,290.49,70,100,1.7,RU,1721243572
146,san patricio,28.017,-97.5169,307.2,42,11,4.14,US,1721243573
147,antigonish,45.6169,-61.9986,300.45,82,79,2.24,CA,1721243574
148,sinabang,2.4803,96.3801,300.19,82,100,2.4,ID,1721243575
149,al qubbah,32.7616,22.2424,297.23,63,0,7.19,LY,1721243576
150,dudinka,69.4058,86.1778,282.96,57,23,2.25,RU,1721243530
151,bilibino,68.0546,166.4372,289.66,57,100,3.25,RU,1721243578
152,susuman,62.7833,148.1667,287.09,78,84,4.68,RU,1721243579
153,malinalco,18.95,-99.5,299.46,76,100,2.23,MX,1721243580
154,saint-tropez,43.2693,6.6398,299.55,79,100,2.86,FR,1721243547
155,fort bragg,35.139,-79.006,308.23,55,20,5.14,US,1721243583
156,lulea,65.5842,22.1547,292.19,72,20,1.03,SE,1721243397
157,tolanaro,-25.0319,46.9987,293.19,94,40,0.0,MG,1721243585
158,whitehorse,60.7161,-135.0538,284.87,93,100,1.54,CA,1721243586
159,mareeba,-17.0,145.4333,282.55,75,7,1.19,AU,1721243587
160,neiafu,-18.65,-173.9833,292.53,100,20,0.0,TO,1721243588
161,campoverde,-8.4753,-74.8058,302.98,33,4,1.49,PE,1721243589
162,kirakira,-10.4544,161.9205,298.84,86,87,1.99,SB,1721243590
163,covington,39.0837,-84.5086,304.11,64,40,5.14,US,1721243591
164,basco,20.4487,121.9702,303.02,79,20,6.99,PH,1721243593
165,port augusta,-32.5,137.7667,280.91,89,0,2.59,AU,1721243595
166,campos belos,-13.0367,-46.7717,304.24,15,0,2.76,BR,1721243596
167,vilyuchinsk,52.9306,158.4028,284.3,90,100,1.07,RU,1721243597
168,praia da vitoria,38.7333,-27.0667,297.46,78,75,5.29,PT,1721243598
169,cockburn town,21.4612,-71.1419,301.6,79,1,7.91,TC,1721243599
170,howard springs,-12.497,131.047,290.83,39,100,3.76,AU,1721243600
171,kraksaan,-7.7585,113.3962,296.49,80,81,1.95,ID,1721243601
172,carlsbad,33.1581,-117.3506,302.01,74,40,3.6,US,1721243603
173,ushuaia,-54.8,-68.3,280.94,70,0,1.03,AR,1721243604
174,cabo san lucas,22.8909,-109.9124,307.32,43,0,4.63,MX,1721243605
175,san miguel,13.4833,-88.1833,306.6,50,72,1.47,SV,1721243606
176,yamada,39.4667,141.95,292.63,96,91,1.01,JP,1721243608
177,nar'yan-mar,67.6713,53.087,284.76,90,19,4.93,RU,1721243609
178,remire-montjoly,4.9167,-52.2667,303.17,74,75,4.12,GF,1721243610
179,olonkinbyen,70.9221,-8.7187,276.39,92,100,3.11,SJ,1721243613
180,salinopolis,-0.6136,-47.3561,302.18,64,16,5.19,BR,1721243614
181,udachny,66.4167,112.4,285.39,61,99,3.8,RU,1721243615
182,kristiansund,63.1115,7.732,289.18,93,75,5.14,NO,1721243541
183,bulungu,-4.55,18.6,300.79,26,95,0.65,CD,1721243617
184,san andres,12.5847,-81.7006,305.16,70,40,7.2,CO,1721243530
185,san antonio de pale,-1.4014,5.6325,295.57,85,94,5.4,GQ,1721243619
186,sarandi del yi,-33.35,-55.6333,289.48,65,69,3.63,UY,1721243620
187,tekeli,44.83,78.8239,291.75,68,100,2.82,KZ,1721243393
188,port mathurin,-19.6833,63.4167,295.28,78,61,9.82,MU,1721243623
189,twon-brass,4.3151,6.2418,298.68,86,93,7.43,NG,1721243624
190,poshekhon'ye,58.4993,39.1353,291.1,70,100,0.91,RU,1721243625
191,qaqortoq,60.7167,-46.0333,280.02,77,15,1.92,GL,1721243626
192,yanam,16.7333,82.2167,299.3,89,100,2.34,IN,1721243627
193,warwick,41.7001,-71.4162,305.84,60,40,4.63,US,1721243628
194,kuchera,26.9839,73.9719,307.76,49,58,3.86,IN,1721243629
195,lebu,-37.6167,-73.65,283.77,89,99,4.0,CL,1721243632
196,keflavik,64.0049,-22.5624,285.1,100,100,3.6,IS,1721243633
197,port elizabeth,-33.918,25.5701,287.77,87,0,1.03,ZA,1721243547
198,tayu,-6.5397,111.0518,297.5,80,0,3.95,ID,1721243635
199,jincheng,35.5022,112.8328,294.79,89,2,1.32,CN,1721243636
200,codrington,-38.2667,141.9667,282.11,75,98,4.46,AU,1721243637
201,mahina,-17.5065,-149.489,300.02,69,40,1.54,PF,1721243638
202,aasiaat,68.7098,-52.8699,278.81,70,7,2.32,GL,1721243639
203,ouani,-12.1322,44.4258,298.12,74,11,3.15,KM,1721243641
204,watertown,42.3709,-71.1828,307.06,53,0,5.66,US,1721243642
205,kingston,17.997,-76.7936,306.02,66,20,10.29,JM,1721243643
206,joao pinheiro,-17.7425,-46.1725,299.89,30,0,0.58,BR,1721243644
207,tuma,55.148,40.5537,296.21,75,100,1.88,RU,1721243645
208,kismayo,-0.3582,42.5454,297.89,84,63,7.73,SO,1721243646
209,tarashcha,49.5583,30.4926,295.95,64,98,4.17,UA,1721243647
210,puerto deseado,-47.7503,-65.8938,281.15,76,100,8.2,AR,1721243648
211,saint-louis,16.3333,-15.0,304.39,51,100,3.31,SN,1721243650
212,port hueneme,34.1478,-119.1951,304.55,73,0,4.63,US,1721243651
213,turpan,42.9333,89.1667,309.0,23,0,1.01,CN,1721243652
214,takeo,10.9167,104.8333,297.68,89,100,3.23,KH,1721243653
215,vilhena,-12.7406,-60.1458,304.41,21,100,2.09,BR,1721243654
216,vila velha,-20.3297,-40.2925,297.12,84,20,4.63,BR,1721243655
217,lamar,33.6668,-95.5836,303.14,43,100,1.21,US,1721243656
218,as safirah,36.077,37.3725,300.99,61,0,7.57,SY,1721243657
219,somoto,13.4808,-86.5821,302.62,54,30,4.76,NI,1721243658
220,auki,-8.7676,160.7034,298.02,85,100,1.72,SB,1721243660
221,waingapu,-9.6567,120.2641,296.7,85,57,7.77,ID,1721243661
222,yuzhno-kurilsk,44.0306,145.8556,289.59,96,24,1.22,RU,1721243662
223,sao jose da coroa grande,-8.8978,-35.1478,298.9,74,4,5.97,BR,1721243663
224,prince rupert,54.3161,-130.3201,294.2,60,100,7.72,CA,1721243664
225,al jawf,29.5,38.75,306.43,17,0,4.99,SA,1721243665
226,rio preto da eva,-2.6994,-59.6997,304.02,48,100,1.49,BR,1721243666
227,mangai,-4.05,19.5333,299.74,30,81,0.85,CD,1721243667
228,neryungri,56.6709,124.6491,287.63,89,100,0.85,RU,1721243668
229,tuapse,44.1125,39.0742,301.89,57,5,0.95,RU,1721243670
230,yantarnyy,54.8717,19.9381,293.07,76,29,2.37,RU,1721243671
231,saint-francois,46.4154,3.9054,295.19,69,4,2.72,FR,1721243672
232,vera cruz,-12.6333,-41.0333,294.91,66,100,2.22,BR,1721243673
233,santa cruz,-17.8,-63.1667,299.85,38,20,4.12,BO,1721243674
234,stutterheim,-32.5708,27.424,284.3,49,80,2.04,ZA,1721243675
235,berezovyy,51.6667,135.7,292.5,99,100,0.79,RU,1721243676
236,akureyri,65.6835,-18.0878,288.11,72,100,3.6,IS,1721243677
237,quellon,-43.1167,-73.6167,283.15,86,100,5.32,CL,1721243679
238,tommot,58.9564,126.2925,287.7,89,92,0.57,RU,1721243680
239,chonchi,-42.6128,-73.8092,285.44,91,100,3.66,CL,1721243681
240,port-vila,-17.7338,168.3219,296.93,100,75,0.51,VU,1721243682
241,tangalle,6.024,80.7911,299.46,85,100,4.17,LK,1721243683
242,newman,37.3138,-121.0208,303.34,15,0,2.86,US,1721243684
243,iskateley,67.6803,53.1512,284.61,90,10,4.95,RU,1721243685
244,souillac,-20.5167,57.5167,294.36,73,40,3.09,MU,1721243686
245,tateyama,34.9833,139.8667,298.76,90,92,1.8,JP,1721243687
246,chibougamau,49.9168,-74.3659,295.94,60,50,3.42,CA,1721243689
247,longboat key,27.4125,-82.659,308.28,60,20,5.66,US,1721243690
248,kanniyakumari,8.0833,77.5667,297.51,79,100,6.96,IN,1721243691
249,weno,7.4515,151.8468,298.74,88,100,3.09,FM,1721243692
250,ola,59.5833,151.2833,285.06,82,100,1.8,RU,1721243693
251,yanchep,-31.55,115.6833,288.49,91,100,6.74,AU,1721243694
252,bereznik,62.8551,42.7072,291.33,74,100,2.01,RU,1721243696
253,fale old settlement,-9.3852,-171.2468,301.46,70,100,9.82,TK,1721243697
254,wotho,10.1657,166.0102,300.86,84,100,7.81,MH,1721243699
255,bamyan,34.75,67.25,284.83,56,0,4.12,AF,1721243700
256,coatepec harinas,18.8949,-99.7215,291.67,73,96,1.81,MX,1721243701
257,monze,-16.2833,27.4833,289.58,34,0,2.53,ZM,1721243702
258,hadibu,12.65,54.0333,299.69,80,100,8.79,YE,1721243703
259,mahibadhoo,3.7833,72.9667,302.08,79,100,4.11,MV,1721243704
260,aljezur,37.3191,-8.8033,292.92,67,1,5.08,PT,1721243706
261,al hawatah,13.4167,34.6333,301.18,64,83,4.59,SD,1721243707
262,queenstown,-31.8976,26.8753,284.91,37,8,3.11,ZA,1721243708
263,muroran,42.3172,140.9881,292.72,97,35,1.26,JP,1721243709
264,katsuura,35.1333,140.3,297.49,93,100,1.27,JP,1721243710
265,talara,-4.5772,-81.2719,296.57,68,0,10.0,PE,1721243711
266,naifaru,5.4444,73.3657,301.88,80,97,5.55,MV,1721243712
267,lionel town,17.8101,-77.2406,306.43,63,4,5.85,JM,1721243713
268,narman,40.3465,41.8703,289.81,91,100,1.09,TR,1721243714
269,poso,-1.3959,120.7524,297.62,80,23,3.77,ID,1721243716
270,tsiombe,-25.3,45.4833,292.0,84,5,2.48,MG,1721243717
271,gizo,-8.103,156.8419,299.62,81,100,2.06,SB,1721243718
272,vorkuta,67.5,64.0,289.14,86,100,2.56,RU,1721243719
273,wuxi,31.5689,120.2886,302.16,82,100,2.59,CN,1721243720
274,hami,42.8,93.45,304.12,29,70,7.42,CN,1721243721
275,natal,-5.795,-35.2094,300.51,61,20,8.75,BR,1721243722
276,guerrero negro,27.9769,-114.0611,296.21,61,5,6.75,MX,1721243723
277,zaragoza,41.6561,-0.8773,306.75,37,0,6.69,ES,1721243725
278,ploneour-lanvern,47.9,-4.2833,291.33,77,0,1.54,FR,1721243726
279,swift current,50.2834,-107.8014,302.6,32,0,3.09,CA,1721243727
280,crane,31.3974,-102.3501,307.7,28,100,7.18,US,1721243728
281,baise city,23.8997,106.6133,297.85,97,100,1.14,CN,1721243729
282,pervomayskoye,43.919,46.7102,297.05,71,100,3.24,RU,1721243730
283,bunia,1.5667,30.25,292.37,83,100,1.59,CD,1721243731
284,ulladulla,-35.35,150.4667,281.11,87,51,2.12,AU,1721243732
285,ipilan,8.8431,117.9033,298.41,88,100,2.34,PH,1721243733
286,salmon arm,50.6998,-119.3024,307.28,30,28,1.03,CA,1721243735
287,acapulco de juarez,16.8634,-99.8901,305.05,62,20,5.14,MX,1721243736
288,omaruru,-21.4333,15.9333,288.32,15,0,0.7,NA,1721243737
289,sucua,-2.4667,-78.1667,299.56,61,75,3.09,EC,1721243738
290,daru,-9.0763,143.2092,297.09,78,100,4.3,PG,1721243739
291,urangan,-25.3,152.9,285.3,67,3,6.1,AU,1721243740
292,tvoroyri,61.5556,-6.8111,284.44,92,100,5.38,FO,1721243741
293,progreso,21.2833,-89.6667,308.77,63,100,6.45,MX,1721243742
294,olyokminsk,60.3736,120.4264,289.32,84,37,0.73,RU,1721243743
295,ust'-ilimsk,58.0006,102.6619,291.1,76,100,0.82,RU,1721243656
296,jamestown,42.097,-79.2353,298.72,70,100,3.09,US,1721243746
297,mount gambier,-37.8333,140.7667,279.21,84,24,1.76,AU,1721243462
298,vilyuysk,63.7553,121.6247,287.8,97,70,2.42,RU,1721243748
299,utrik,11.2278,169.8474,300.74,85,76,9.38,MH,1721243749
300,champerico,14.3,-91.9167,307.45,73,97,4.13,GT,1721243750
301,morden,49.1919,-98.1014,294.31,52,46,1.03,CA,1721243751
302,qarazhal,48.0078,70.7903,292.5,79,100,3.48,KZ,1721243752
303,i-n-salah,27.1935,2.4607,315.56,6,31,4.1,DZ,1721243753
304,broken hill,-31.95,141.4333,280.12,98,57,5.24,AU,1721243754
305,ujiie,36.6833,139.9667,294.45,95,39,0.91,JP,1721243755
306,praia,14.9215,-23.5087,299.45,73,75,3.09,CV,1721243561
307,sibay,52.7181,58.6658,288.77,85,60,2.26,RU,1721243758
308,zaterechnyy,44.7931,45.2097,300.13,43,96,4.26,RU,1721243759
309,margate,51.3813,1.3862,293.64,67,100,3.57,GB,1721243760
310,las tablas,7.7667,-80.2833,301.58,80,100,2.92,PA,1721243761
311,hammerfest,70.6634,23.6821,285.4,87,0,5.14,NO,1721243763
312,wamba,8.9333,8.6,297.37,91,29,1.64,NG,1721243765
313,mugia,43.1041,-9.2179,293.8,88,96,2.59,ES,1721243766
314,kununurra,-15.7667,128.7333,283.14,71,100,1.54,AU,1721243767
315,kuala belait,4.5833,114.1833,298.24,84,98,0.43,BN,1721243768
316,bir el ater,34.7449,8.0602,305.36,19,99,4.76,DZ,1721243769
317,luganville,-15.5333,167.1667,297.67,90,85,0.43,VU,1721243770
318,sinop,41.7711,34.8709,294.36,66,100,1.54,TR,1721243662
319,itamaraca,-7.7478,-34.8256,301.18,75,5,5.84,BR,1721243772
320,enewetak,11.3474,162.3373,301.64,77,67,7.86,MH,1721243774
321,egilsstadir,65.2653,-14.3948,283.1,93,100,5.14,IS,1721243775
322,itoman,26.1247,127.6694,302.58,91,20,5.14,JP,1721243776
323,toguchin,55.2353,84.3858,291.76,90,86,2.23,RU,1721243777
324,qurayyat,31.3318,37.3428,305.25,17,0,3.09,SA,1721243778
325,colonia,50.9333,6.95,295.9,69,20,1.54,DE,1721243662
326,bodaybo,57.8506,114.1933,289.44,88,97,0.37,RU,1721243552
327,macheng,31.1783,115.0319,300.27,83,100,2.18,CN,1721243781
328,macapa,0.0389,-51.0664,306.14,58,40,3.09,BR,1721243782
329,muromtsevo,56.3724,75.2418,290.38,97,100,3.59,RU,1721243783
330,al ghayzah,16.2079,52.176,299.92,86,100,4.18,YE,1721243785
331,muroto-misakicho,33.2833,134.15,299.22,91,100,3.97,JP,1721243786
332,idri,27.5,13.2667,306.86,12,0,5.19,LY,1721243787
333,san luis de la loma,17.2706,-100.8939,304.7,62,9,3.09,MX,1721243788
334,happy valley-goose bay,53.3168,-60.3315,291.32,82,75,5.14,CA,1721243789
335,belene,43.65,25.1167,306.47,22,90,2.32,BG,1721243790
336,punta arenas,-53.15,-70.9167,280.21,81,0,3.6,CL,1721243791
337,monrovia,6.3005,-10.7969,298.02,82,100,5.99,LR,1721243586
338,ellsworth,44.5434,-68.4195,303.2,63,0,7.2,US,1721243795
339,gunjur,13.2019,-16.7339,299.19,21,75,3.6,GM,1721243796
340,arraial do cabo,-22.9661,-42.0278,295.13,78,0,7.72,BR,1721243798
341,santiago,-33.4569,-70.6483,293.84,33,75,2.06,CL,1721243799
342,aflou,34.1128,2.1023,305.69,12,79,4.69,DZ,1721243574
343,moapa valley,36.5805,-114.4703,315.16,13,9,2.82,US,1721243801
344,fisterra,42.9049,-9.2629,293.72,89,99,3.71,ES,1721243802
345,vila franca do campo,37.7167,-25.4333,297.38,91,99,4.86,PT,1721243804
346,sretensk,52.2453,117.7093,289.32,96,100,1.51,RU,1721243805
347,trincomalee,8.5711,81.2335,301.61,74,100,8.26,LK,1721243806
348,catumbela,-12.4314,13.5472,293.47,91,62,1.06,AO,1721243807
349,saldanha,-33.0117,17.9442,285.82,85,100,4.35,ZA,1721243808
350,cadale,2.7603,46.3222,298.24,85,21,8.14,SO,1721243809
351,melfort,52.8667,-104.6177,298.22,53,4,5.14,CA,1721243810
352,san ignacio de velasco,-16.3667,-60.95,303.56,25,99,1.81,BO,1721243811
353,holualoa,19.6228,-155.9522,297.35,83,40,3.09,US,1721243812
354,zacualtipan,20.65,-98.6,295.14,76,81,2.75,MX,1721243814
355,ocean city,39.2776,-74.5746,307.14,72,21,2.24,US,1721243815
356,bandar-e genaveh,29.5791,50.517,307.27,62,10,3.13,IR,1721243816
357,cody,44.5263,-109.0565,304.26,29,0,2.57,US,1721243817
358,mili,6.0815,171.735,299.96,83,100,5.76,MH,1721243818
359,roanoke rapids,36.4615,-77.6542,307.64,70,40,5.14,US,1721243819
360,dongfeng,42.6403,125.5118,291.99,94,2,1.95,CN,1721243820
361,morehead city,34.7229,-76.726,302.6,85,40,9.26,US,1721243821
362,saint-pierre,-21.3393,55.4781,293.97,64,20,2.57,RE,1721243814
363,richmond,37.5538,-77.4603,308.84,59,0,3.6,US,1721243824
364,la'ie,21.6477,-157.9253,300.13,74,65,1.79,US,1721243825
365,saint-philippe,-21.3585,55.7679,293.92,82,90,5.58,RE,1721243826
366,portel,-1.9356,-50.8211,306.99,35,0,1.98,BR,1721243827
367,kish,26.5578,54.0194,306.3,89,99,2.06,IR,1721243809
368,kasongo,-4.45,26.6667,300.38,28,56,1.72,CD,1721243829
369,kone,-21.0595,164.8658,292.53,93,42,1.87,NC,1721243830
370,wanning,18.8003,110.3967,299.37,90,100,3.12,CN,1721243831
371,sogndal,61.2283,7.1003,290.36,77,75,8.23,NO,1721243833
372,tripoli,32.8752,13.1875,300.74,62,0,3.06,LY,1721243834
373,kerimaki,61.9167,29.2833,294.12,60,20,3.09,FI,1721243835
374,temiskaming shores,47.4938,-79.7153,293.04,63,100,2.85,CA,1721243836
375,kushiro,42.975,144.3747,292.68,100,100,1.54,JP,1721243837
376,piriapolis,-34.8682,-55.2744,288.24,79,20,3.09,UY,1721243838
377,chongwe,-15.3292,28.682,288.47,37,0,1.95,ZM,1721243839
378,at taj,24.2049,23.2857,305.57,14,7,5.2,LY,1721243843
379,la libertad,-2.2333,-80.9,297.96,69,40,3.6,EC,1721243844
380,arawa,-6.2132,155.5367,297.83,94,100,1.01,PG,1721243845
381,atamyrat,37.8357,65.2106,303.25,23,0,5.28,TM,1721243846
382,santa terezinha,-29.9002,-50.0904,291.78,79,1,4.36,BR,1721243847
383,naze,28.3667,129.4833,299.66,89,100,1.85,JP,1721243849
384,chernyshevskiy,63.0128,112.4714,288.27,89,98,2.49,RU,1721243850
385,buon ma thuot,12.6667,108.05,295.3,93,100,2.09,VN,1721243851
386,howrah,22.5892,88.3103,302.15,89,40,1.54,IN,1721243853
387,yigo village,13.5361,144.8886,301.31,79,100,6.69,GU,1721243854
388,pervomayskiy,53.2485,40.2871,297.04,67,7,2.82,RU,1721243855
389,east ballina,-28.8667,153.5833,284.15,71,0,7.19,AU,1721243856
390,gadzhiyevo,69.2551,33.3362,284.56,96,90,3.5,RU,1721243857
391,son la,21.3167,103.9,294.43,98,92,1.19,VN,1721243858
392,zaki biam,7.5167,9.6167,297.6,92,100,1.89,NG,1721243859
393,la union,-5.4,-80.75,301.43,40,0,6.62,PE,1721243860
394,veraval,20.9,70.3667,301.42,89,100,8.69,IN,1721243862
395,felege neway,6.3,36.8833,290.85,92,100,1.25,ET,1721243863
396,sisimiut,66.9395,-53.6735,282.39,67,13,2.33,GL,1721243864
397,kimbe,-5.5502,150.1429,297.23,89,99,2.95,PG,1721243865
398,frontera,26.9333,-101.45,297.53,81,100,2.24,MX,1721243866
399,pratt,37.6439,-98.7376,304.68,35,0,5.14,US,1721243867
400,hithadhoo,-0.6,73.0833,301.67,76,19,3.19,MV,1721243868
401,isangel,-19.55,169.2667,298.21,88,75,1.03,VU,1721243869
402,colonia menno,-22.3667,-59.8167,300.14,30,0,1.2,PY,1721243871
403,hamilton,39.1834,-84.5333,304.13,63,40,5.14,US,1721243872
404,novyy urengoy,66.0833,76.6333,289.46,50,7,2.2,RU,1721243873
405,matsubase,32.65,130.6667,298.22,86,58,1.8,JP,1721243874
406,gaspe,48.8334,-64.4819,298.27,83,75,4.12,CA,1721243875
407,riachao,-7.3619,-46.6172,306.73,19,5,3.75,BR,1721243876
408,xinhui,22.456,113.0482,302.04,91,12,2.76,CN,1721243877
409,zouerate,22.7187,-12.4521,312.93,8,0,3.86,MR,1721243878
410,kelme,55.6339,22.9342,293.16,83,100,1.87,LT,1721243879
411,salalah,17.0151,54.0924,300.2,94,100,3.09,OM,1721243733
412,al mayadin,35.0209,40.4535,309.28,19,0,3.16,SY,1721243882
413,walvis bay,-22.9575,14.5053,285.98,94,0,1.54,NA,1721243883
414,sirte,31.2089,16.5887,300.9,73,0,3.79,LY,1721243884
415,kannauj,27.0546,79.922,305.24,65,85,4.7,IN,1721243885
416,qui nhon,13.7667,109.2333,298.44,86,28,2.11,VN,1721243886
417,zyryanskoye,56.8306,86.6258,291.93,93,100,1.59,RU,1721243887
418,bandarbeyla,9.4942,50.8122,298.96,82,89,15.17,SO,1721243888
419,aras-asan,8.8908,126.3033,297.91,92,100,2.79,PH,1721243889
420,qingyuan,23.7,113.0333,301.14,86,2,1.44,CN,1721243891
421,mount isa,-20.7333,139.5,272.02,80,0,2.57,AU,1721243892
422,nagqu,31.5,92.0,280.88,90,100,1.65,CN,1721243893
423,pacific grove,36.6177,-121.9166,297.71,74,0,3.09,US,1721243895
424,fairbanks,64.8378,-147.7164,288.34,77,75,0.0,US,1721243896
425,hotan,37.0997,79.9269,301.83,22,34,3.69,CN,1721243897
426,ihosy,-22.4,46.1167,288.67,50,0,1.63,MG,1721243898
427,tyul'gan,52.3405,56.166,290.26,82,70,2.38,RU,1721243900
428,zagora,30.3484,-5.8365,308.92,20,100,6.46,MA,1721243901
429,borovskoy,53.8,64.15,289.1,81,0,3.52,KZ,1721243902
430,lepsy,46.235,78.9456,300.44,41,12,1.06,KZ,1721243903
431,rongelap,11.1635,166.8941,301.06,84,59,8.83,MH,1721243904
432,grand gaube,-20.0064,57.6608,295.58,76,0,1.34,MU,1721243905
433,san borja,-14.8167,-66.85,303.49,30,0,1.47,BO,1721243906
434,kerikeri,-35.2268,173.9474,282.88,96,10,1.37,NZ,1721243907
435,bischofshofen,47.4167,13.2167,292.89,98,100,0.96,AT,1721243744
436,dazuocun,24.8862,118.9643,301.39,89,0,4.64,CN,1721243910
437,perry,37.2506,-83.1999,307.25,90,100,4.14,US,1721243911
438,kajaani,64.2273,27.7285,293.18,73,0,1.54,FI,1721243718
439,escarcega,18.6089,-90.7454,309.36,34,60,1.86,MX,1721243891
440,baharly,38.4362,57.4316,305.97,25,0,2.95,TM,1721243915
441,kitami,43.8031,143.8908,290.62,88,0,0.23,JP,1721243916
442,minas de marcona,-15.2119,-75.1103,290.56,50,0,3.78,PE,1721243917
443,haiku-pauwela,20.9219,-156.3051,299.96,63,20,7.2,US,1721243918
444,arkalyk,50.2486,66.9114,291.91,81,70,3.1,KZ,1721243920
445,ungsang-nodongjagu,42.3578,130.4622,292.08,100,100,1.41,KP,1721243921
446,nemuro,43.3236,145.575,289.39,100,100,3.14,JP,1721243922
447,fort st. john,56.2499,-120.8529,301.09,36,20,3.09,CA,1721243923
448,dali,25.7,100.1833,291.37,92,95,1.6,CN,1721243924
449,copala,16.65,-98.9833,304.19,60,80,3.67,MX,1721243925
450,brisas de zicatela,15.8369,-97.0419,305.44,62,20,2.57,MX,1721243926
451,dahab,28.501,34.5134,308.01,32,0,3.55,EG,1721243927
452,calama,-22.4667,-68.9333,298.42,2,0,8.23,CL,1721243928
453,berdigestyakh,62.0989,126.6992,287.46,96,4,1.13,RU,1721243930
454,bikenibeu village,1.3673,173.1241,301.13,83,75,2.57,KI,1721243931
455,mejit,10.2753,170.8646,300.75,85,100,9.69,MH,1721243932
456,langepas,61.2544,75.2124,290.28,70,100,3.74,RU,1721243934
457,castillos,-34.1667,-53.8333,286.89,82,100,3.63,UY,1721243935
458,fortuna,40.5982,-124.1573,291.66,75,0,4.12,US,1721243936
459,taroa,8.7058,171.2275,300.36,87,100,10.76,MH,1721243937
460,yashiro,34.9167,134.9667,297.75,93,100,0.98,JP,1721243938
461,pariyapuram,10.9561,76.1916,296.31,97,100,0.58,IN,1721243967
462,manggar,-2.8833,108.2667,300.5,78,12,5.41,ID,1721243968
463,nadi,-17.8,177.4167,296.15,88,20,0.0,FJ,1721243969
464,amahai,-3.3333,128.9167,296.99,85,97,6.31,ID,1721243970
465,road town,18.4167,-64.6167,304.2,74,40,4.12,VG,1721243972
466,kochubey,44.3861,46.5825,298.42,79,98,4.16,RU,1721243973
467,el nido,11.1858,119.3956,298.42,93,100,1.88,PH,1721243974
468,st. john's,47.5649,-52.7093,296.08,88,34,1.79,CA,1721243807
469,azemmour,33.2895,-8.3425,296.84,69,26,7.42,MA,1721243976
470,brookings,44.3114,-96.7984,296.03,56,40,5.14,US,1721243977
471,antsohihy,-14.8796,47.9875,294.72,71,34,2.46,MG,1721243984
472,manokwari,-0.8667,134.0833,298.91,80,100,1.89,ID,1721243985
473,alice springs,-23.7,133.8833,273.9,86,0,1.54,AU,1721243986
474,bumba,2.1833,22.4667,295.44,92,78,2.02,CD,1721243987
475,katabu,-4.9333,122.5167,294.61,90,3,2.2,ID,1721243989
476,tarko-sale,64.9225,77.785,288.02,60,11,2.76,RU,1721243990
477,luderitz,-26.6481,15.1594,286.72,88,0,2.3,NA,1721243991
478,buta,2.7858,24.73,296.33,93,100,1.46,CD,1721243992
479,st martin,50.3698,-4.4473,291.34,88,100,1.83,GB,1721243993
480,laojunmiao,39.8333,97.7333,297.04,34,80,3.74,CN,1721243994
481,katsuren-haebaru,26.3369,127.8719,302.58,91,0,3.09,JP,1721243995
482,smidovich,48.6,133.8167,292.95,93,73,2.38,RU,1721243900
483,ouricuri,-7.8825,-40.0817,299.05,52,99,3.07,BR,1721243998
484,berbera,10.4396,45.0143,307.01,44,100,7.63,SO,1721244000
485,andrushivka,50.0229,29.0202,296.52,55,53,0.29,UA,1721244001
486,freeport,40.6576,-73.5832,305.6,73,20,6.17,US,1721244002
487,galappo,-4.2667,35.85,290.99,64,80,2.93,TZ,1721244003
488,canutama,-6.5339,-64.3831,308.13,29,47,2.53,BR,1721244004
489,kapa'a,22.0752,-159.319,301.14,71,75,5.14,US,1721244005
490,puerto armuelles,8.2833,-82.8667,304.14,81,100,1.34,PA,1721244006
491,kalajoki,64.25,23.95,291.99,95,100,4.24,FI,1721244006
492,kapit,2.0167,112.9333,296.47,99,99,0.42,MY,1721244009
493,altai,46.3722,96.2583,290.86,49,84,2.51,MN,1721244010
494,salinas,36.6777,-121.6555,298.74,62,0,3.09,US,1721244012
495,geraldton,-28.7667,114.6,290.38,94,75,5.14,AU,1721244013
496,puerto aysen,-45.4,-72.7,277.93,99,100,1.74,CL,1721244014
497,lashio,22.9333,97.75,294.96,99,100,0.24,MM,1721244015
498,vuktyl,63.8567,57.3094,291.13,71,5,1.6,RU,1721244016
499,campo maior,-4.8278,-42.1686,309.23,22,2,2.62,BR,1721244017
500,bamboo flat,11.7,92.7167,301.2,89,100,4.12,IN,1721244018
501,ishigaki,24.3448,124.1572,302.22,89,40,2.06,JP,1721244019
502,abilene,32.4487,-99.7331,309.36,37,0,2.57,US,1721244021
503,agat village,13.3886,144.6585,302.21,84,20,4.12,GU,1721244022
504,ciudad lazaro cardenas,17.9583,-102.2,304.67,63,7,4.71,MX,1721244023
505,kruisfontein,-34.0033,24.7314,284.2,78,100,0.77,ZA,1721243947
506,puerto baquerizo moreno,-0.9,-89.6,298.7,65,40,6.17,EC,1721244025
507,campo ramon,-27.4611,-55.019,292.99,52,0,1.0,AR,1721244026
508,tumayr,25.7039,45.868,307.03,16,91,3.57,SA,1721244027
509,bairnsdale,-37.8333,147.6167,281.51,89,32,0.45,AU,1721244029
510,sault ste. marie,46.5168,-84.3333,293.31,66,0,10.29,CA,1721244030
511,mendi,-6.1761,143.6513,286.45,99,100,0.43,PG,1721244031
512,beberibe,-4.1797,-38.1306,300.66,65,12,5.35,BR,1721244032
513,guilin,25.2819,110.2864,301.21,87,12,0.37,CN,1721244033
514,christchurch,-43.5333,172.6333,279.79,92,100,0.51,NZ,1721244027
515,el granada,37.5027,-122.4694,296.97,71,40,7.2,US,1721244036
516,arar,30.9753,41.0381,309.16,11,0,3.09,SA,1721244037
517,kuraymah,18.55,31.85,309.0,13,9,2.03,SD,1721244039
518,rucar,45.4,25.1667,296.73,53,44,2.9,RO,1721244040
519,rabaul,-4.1967,152.1721,299.28,81,100,6.68,PG,1721244041
520,portland,45.5234,-122.6762,299.07,56,75,2.57,US,1721243763
521,freetown,8.484,-13.2299,297.38,91,100,4.44,SL,1721244043
522,penzance,50.1186,-5.5371,290.53,82,100,3.79,GB,1721244044
523,chauk,20.8833,94.8167,301.55,77,67,4.99,MM,1721244045
524,lata,40.1629,-8.3327,296.44,57,0,2.38,PT,1721244047
525,guanica,17.9716,-66.908,307.42,66,100,8.92,PR,1721244048
526,shiguai,40.7058,110.2856,294.44,32,0,3.23,CN,1721244049
527,noumea,-22.2763,166.4572,295.37,99,90,2.52,NC,1721244050
528,l'aquila,42.365,13.3935,300.44,49,4,0.65,IT,1721244051
529,sakakah,29.9697,40.2064,308.91,15,0,1.84,SA,1721244052
530,rurrenabaque,-14.4413,-67.5278,303.98,51,20,2.06,BO,1721244053
531,silveira,39.1112,-9.3643,296.55,75,0,0.89,PT,1721244054
532,simanggang,1.2472,111.4528,300.14,100,96,0.0,MY,1721244055
533,sharypovo,55.5403,89.2008,292.36,89,100,1.91,RU,1721243971
534,khandyga,62.6667,135.6,286.44,95,100,2.11,RU,1721244058
535,tazacorte,28.629,-17.9293,297.12,82,20,4.63,ES,1721244059
536,aginskoye,51.1,114.53,290.57,52,100,3.23,RU,1721244060
537,zeya,53.75,127.2667,291.82,97,100,2.12,RU,1721244061
538,shiraz,29.6036,52.5388,305.84,18,0,5.14,IR,1721244002
539,alem paraiba,-21.8878,-42.7044,298.64,54,0,0.58,BR,1721244063
540,sur,22.5667,59.5289,304.77,63,100,6.4,OM,1721244064
541,bhamo,24.2667,97.2333,298.41,95,90,0.69,MM,1721244065
542,jalai nur,49.45,117.7,291.49,65,100,3.43,CN,1721244068
543,tevriz,57.509,72.4042,289.38,97,100,2.85,RU,1721244069
544,petropavlovsk-kamchatsky,53.0452,158.6483,283.48,100,75,4.0,RU,1721244070
545,immokalee,26.4187,-81.4173,309.23,62,0,2.06,US,1721244071
546,dunedin,-45.8742,170.5036,279.15,98,100,0.45,NZ,1721244072
547,vyshhorod,50.5848,30.4898,300.31,61,15,3.46,UA,1721244074
548,ketchikan,55.3422,-131.6461,290.41,94,100,5.14,US,1721244075
549,aykhal,66.0,111.5,284.41,80,78,2.94,RU,1721244076
550,awjilah,29.1081,21.2869,305.1,33,0,8.52,LY,1721244078
551,pekanbaru,0.5333,101.45,296.33,94,75,2.06,ID,1721244022
552,nabire,-3.3667,135.4833,296.69,95,100,1.92,ID,1721244081
553,kenai,60.5544,-151.2583,287.12,82,40,4.63,US,1721244082
554,ixtapa,20.7,-105.2,306.05,70,20,5.14,MX,1721244083
555,camocim,-2.9022,-40.8411,303.57,53,100,6.9,BR,1721244084
556,bangui,4.3612,18.555,297.25,94,20,0.51,CF,1721244085
557,padang,-0.9492,100.3543,299.18,88,5,1.86,ID,1721243968
558,fort mcmurray,56.7268,-111.381,305.92,25,0,6.17,CA,1721244088
559,clearlake,38.9582,-122.6264,306.12,20,0,1.5,US,1721244089
560,san blas atempa,16.3264,-95.2225,306.73,49,100,2.36,MX,1721244090
561,tsengel,49.4783,100.8894,289.56,55,100,0.79,MN,1721244091
562,bedele,8.456,36.353,286.93,96,100,1.34,ET,1721244092
563,paramonga,-10.6667,-77.8333,292.28,68,4,4.76,PE,1721244093
564,pemangkat,1.1667,108.9667,300.14,86,10,4.23,ID,1721244094
565,joshimath,30.5667,79.5667,292.52,97,100,1.24,IN,1721244095
566,illizi,26.4833,8.4667,312.04,12,0,4.37,DZ,1721244097
567,argo,37.6333,22.7333,303.59,35,0,2.6,GR,1721244098
568,lae,-6.7221,146.9847,295.31,92,81,0.97,PG,1721244099
569,tofol,5.3248,163.0078,299.36,86,100,3.7,FM,1721244100
570,zhengjiatun,43.5064,123.5064,293.61,73,0,4.13,CN,1721244101
571,lompoc,34.6391,-120.4579,298.23,73,0,0.45,US,1721244102
572,trairi,-3.2778,-39.2689,300.57,66,8,6.24,BR,1721244103
573,acarau,-2.8856,-40.12,302.09,59,6,8.02,BR,1721244104
574,culfa,38.9558,45.6308,303.08,30,70,4.01,AZ,1721244105
575,beira,-19.8436,34.8389,294.2,94,0,1.54,MZ,1721244107
576,touros,-5.1989,-35.4608,299.77,71,4,6.58,BR,1721244108
577,santa rita,-7.1139,-34.9781,300.52,65,20,6.69,BR,1721244109
578,nueva helvecia,-34.3,-57.2333,290.7,61,100,1.67,UY,1721244110
579,pontes e lacerda,-15.2261,-59.3353,305.75,22,100,2.49,BR,1721244111
580,flying fish cove,-10.4217,105.6791,297.97,78,40,5.14,CX,1721244047
581,san miguel de allende,20.9167,-100.75,296.64,69,53,2.34,MX,1721244113
582,miyaly,48.8844,53.7836,298.36,42,15,3.07,KZ,1721244114
583,valparaiso,-33.0393,-71.6273,293.28,39,0,4.12,CL,1721243905
584,brokopondo,4.75,-55.1667,302.85,63,100,2.23,SR,1721244118
585,papao,-17.75,-149.55,299.97,77,18,1.34,PF,1721244119
586,ancud,-41.8697,-73.8203,283.43,89,29,6.52,CL,1721244120
587,tugulym,57.0591,64.6425,291.19,82,0,2.75,RU,1721244121
588,dryden,49.7833,-92.7503,292.31,52,40,3.09,CA,1721244122
589,dwarka,22.2394,68.9678,302.84,84,100,2.82,IN,1721244123
590,okha,53.5739,142.9478,283.52,89,98,5.74,RU,1721244125
591,el calafate,-50.3408,-72.2768,276.91,86,100,0.87,AR,1721244126
592,linqiong,30.4159,103.4609,297.05,92,100,0.89,CN,1721244127
593,medina,24.4686,39.6142,312.39,16,0,4.63,SA,1721244128
